[
    
    {
        "city": "JYP EV charging",
        "admin": "Odisha",
        "country": "India",
        "population_proper": "1837041",
        "iso2": "IN",
        "capital": "",
        "lat": "18.852236",
        "lng": "82.9536",
        "population": "2026000"
    },

    {
        "city": "Brahmapur",
        "admin": "Odisha",
        "country": "India",
        "population_proper": "1599914",
        "iso2": "IN",
        "capital": "admin",
        "lat": "17.856236",
        "lng": "81.892236",
        "population": "1727000"
    },
    {
        "city": "Jeypore EV charging",
        "admin": "Telangana ",
        "country": "India",
        "population_proper": "959823",
        "iso2": "IN",
        "capital": "",
        "lat": "18.854236",
        "lng": "82.3536",
        "population": "1696000"
    },
    
    {
        "city": "Sambalpur",
        "admin": "Odisha",
        "country": "India",
        "population_proper": "1576614",
        "iso2": "IN",
        "capital": "",
        "lat": "18.862236",
        "lng": "83.9812",
        "population": "1576614"
    },
    {
        "city": "Vishakhapatnam",
        "admin": "Andhra Pradesh",
        "country": "India",
        "population_proper": "1063178",
        "iso2": "IN",
        "capital": "",
        "lat": "17.704052",
        "lng": "83.297663",
        "population": "1529000"
    }
    
]